[
  {
    "id": 1,
    "name": "Golden Village VivoCity",
    "address": "1 HarbourFront Walk, Singapore 098585",
    "province": "Central Region",
    "country": "Singapore",
    "open_hours": "10:00 AM",
    "close_hours": "11:30 PM",
    "studio": ["IMAX", "Reguler", "2D"],
    "picture": "https://s.yimg.com/ny/api/res/1.2/f7SHo0jHczpT7.Iz5a7P1g--/YXBwaWQ9aGlnaGxhbmRlcjt3PTY0MDtoPTM1Nw--/https://media-mbst-pub-ue1.s3.amazonaws.com/creatr-uploaded-images/2020-08/cf8b0200-dd74-11ea-abfc-6cb8d5230019"
  },
  {
    "id": 2,
    "name": "Shaw Theatres Lido",
    "address": "350 Orchard Rd, Singapore 238868",
    "province": "Central Region",
    "country": "Singapore",
    "open_hours": "09:30 AM",
    "close_hours": "12:00 AM",
    "studio": ["IMAX", "Dolby Atmos", "3D"],
    "picture": "https://ngsprodstorage1.blob.core.windows.net/prd/content/images/location/default/en-sg/stills-theatres-ShawTheatresLido-03.jpg"
  },
  {
    "id": 3,
    "name": "Cathay Cineplexes",
    "address": "2 Handy Rd, Singapore 229233",
    "province": "Central Region",
    "country": "Singapore",
    "open_hours": "10:00 AM",
    "close_hours": "11:00 PM",
    "studio": ["Reguler", "2D", "4DX"],
    "picture": "https://res.klook.com/images/fl_lossy.progressive,q_65/c_fill,w_1295,h_863/w_80,x_15,y_15,g_south_west,l_Klook_water_br_trans_yhcmh3/activities/pewkk5pl4cetjzzlrn3s/CathayCineplexesSingaporeDigitalEverydayMovieVoucherorMediumPopcornComboVoucher.jpg"
  },
  {
    "id": 4,
    "name": "TOHO Cinemas Shinjuku",
    "address": "1-19-1 Kabukicho, Shinjuku, Tokyo 160-0021",
    "province": "Tokyo",
    "country": "Japan",
    "open_hours": "09:00 AM",
    "close_hours": "12:30 AM",
    "studio": ["IMAX", "4DX", "Dolby Cinema"],
    "picture": "https://thebestjapan.com/wp-content/uploads/2020/01/toho-cinemas-shinjuku-front.jpg"
  },
  {
    "id": 5,
    "name": "109 Cinemas Kawasaki",
    "address": "72-1 Horikawacho, Kawasaki, Kanagawa 210-0007",
    "province": "Kanagawa",
    "country": "Japan",
    "open_hours": "09:30 AM",
    "close_hours": "11:45 PM",
    "studio": ["IMAX", "Reguler", "3D"],
    "picture": "https://cdn.4travel.jp/img/thumbnails/imk/tips_pict/12/35/07/650x450_12350738.jpg"
  },
  {
    "id": 6,
    "name": "Aeon Cinema Urawa Misono",
    "address": "4 Chome-12-1 Misono, Midori Ward, Saitama 336-0967",
    "province": "Saitama",
    "country": "Japan",
    "open_hours": "10:00 AM",
    "close_hours": "12:00 AM",
    "studio": ["2D", "Dolby Atmos", "Reguler"],
    "picture": "https://media-cdn.tripadvisor.com/media/photo-s/14/98/dc/db/caption.jpg"
  },
  {
    "id": 7,
    "name": "CGV Jakarta Grand Indonesia",
    "address": "Jl. M.H. Thamrin No.1, Jakarta 10310",
    "province": "DKI Jakarta",
    "country": "Indonesia",
    "open_hours": "10:00 AM",
    "close_hours": "11:00 PM",
    "studio": ["IMAX", "4DX", "Reguler"],
    "picture": "https://lh3.googleusercontent.com/-ziBNJFIyR8c/Xvx-WCM_Q7I/AAAAAAAAFE4/zVMdEkFVuP0M4xyZralCYNN_j62LYPzQwCLcBGAsYHQ/s1600/1593605707145278-0.png"
  },
  {
    "id": 8,
    "name": "XXI Plaza Senayan",
    "address": "Jl. Asia Afrika No.8, Jakarta 10270",
    "province": "DKI Jakarta",
    "country": "Indonesia",
    "open_hours": "09:30 AM",
    "close_hours": "11:30 PM",
    "studio": ["Reguler", "Dolby Atmos", "3D"],
    "picture": "https://www.jadwalnonton.com/data/images/theaters/plaza-senayan-xxi-jakarta_430x280.jpg"
  },
  {
    "id": 9,
    "name": "Cinepolis Pacific Place",
    "address": "Jl. Jenderal Sudirman No.52-53, Jakarta 12190",
    "province": "DKI Jakarta",
    "country": "Indonesia",
    "open_hours": "10:00 AM",
    "close_hours": "12:00 AM",
    "studio": ["Reguler", "2D", "VIP"],
    "picture": "https://media-cdn.tripadvisor.com/media/photo-s/09/d6/74/48/photo-from-cinepolis.jpg"
  },
  {
    "id": 10,
    "name": "Lotte Cinema Hanoi Center",
    "address": "54 Lieu Giai, Ba Dinh, Hanoi, Vietnam",
    "province": "Hanoi",
    "country": "Vietnam",
    "open_hours": "09:00 AM",
    "close_hours": "11:00 PM",
    "studio": ["IMAX", "3D", "2D"],
    "picture": "https://tse2.mm.bing.net/th?id=OIP.0Wkz0qOe8ehXLZzh6PrqngHaEK&pid=Api&P=0&h=180"
  },
  {
    "id": 11,
    "name": "CGV Vincom Center",
    "address": "191 Ba Trieu, Hai Ba Trung, Hanoi, Vietnam",
    "province": "Hanoi",
    "country": "Vietnam",
    "open_hours": "10:00 AM",
    "close_hours": "11:30 PM",
    "studio": ["IMAX", "4DX", "2D"],
    "picture": "https://tse3.mm.bing.net/th?id=OIP.hJt8gGplqPikMxU36Z5pIwHaEK&pid=Api&P=0&h=180"
  },
  {
    "id": 12,
    "name": "MegaStar Cineplex Saigon",
    "address": "60A Truong Son, Tan Binh, Ho Chi Minh City, Vietnam",
    "province": "Ho Chi Minh City",
    "country": "Vietnam",
    "open_hours": "09:30 AM",
    "close_hours": "12:00 AM",
    "studio": ["Reguler", "Dolby Atmos", "3D"],
    "picture": "https://cache.travelfish.org/blogs/vietnam/wp-content/uploads/2012/07/Blog-Theaters-Megastar.jpg"
  },
  {
    "id": 13,
    "name": "Paragon Cineplex",
    "address": "991 Rama I Rd, Pathum Wan, Bangkok 10330, Thailand",
    "province": "Bangkok",
    "country": "Thailand",
    "open_hours": "10:00 AM",
    "close_hours": "11:45 PM",
    "studio": ["IMAX", "4DX", "VIP"],
    "picture": "https://tse2.mm.bing.net/th?id=OIP._MFRTvS7ZXTu3U-eYY3nkAHaEK&pid=Api&P=0&h=180"
  },
  {
    "id": 14,
    "name": "SF World Cinema",
    "address": "7th Floor, CentralWorld, Bangkok 10330, Thailand",
    "province": "Bangkok",
    "country": "Thailand",
    "open_hours": "10:00 AM",
    "close_hours": "12:00 AM",
    "studio": ["Reguler", "Dolby Atmos", "3D"],
    "picture": "https://www.marvelcompany.com/datas/document/27-449-0.jpg"
  },
  {
    "id": 15,
    "name": "Broadway Cinematheque Hong Kong",
    "address": "3 Public Square St, Yau Ma Tei, Hong Kong",
    "province": "Kowloon",
    "country": "Hong Kong",
    "open_hours": "10:00 AM",
    "close_hours": "12:00 AM",
    "studio": ["IMAX", "Reguler", "2D"],
    "picture": "https://www.holidify.com/images/cmsuploads/compressed/broadwaycinamtheque-e1562744799768_20190805184738.jpg"
  },
  {
    "id": 16,
    "name": "UA iSquare",
    "address": "63 Nathan Rd, Tsim Sha Tsui, Hong Kong",
    "province": "Kowloon",
    "country": "Hong Kong",
    "open_hours": "09:30 AM",
    "close_hours": "11:45 PM",
    "studio": ["Dolby Atmos", "3D", "VIP"],
    "picture": "https://static.wixstatic.com/media/30e335_c699d83eba7649119906da6026d8b77a.jpg/v1/fill/w_908,h_454,al_c,q_85,enc_auto/30e335_c699d83eba7649119906da6026d8b77a.jpg"
  },
  {
    "id": 17,
    "name": "MCL Cyberport Cinema",
    "address": "100 Cyberport Rd, Pok Fu Lam, Hong Kong",
    "province": "Hong Kong Island",
    "country": "Hong Kong",
    "open_hours": "10:00 AM",
    "close_hours": "11:00 PM",
    "studio": ["Reguler", "4DX", "2D"],
    "picture": "https://www.esun.com/esun-holdings/f/upload/1042/esun-mcl-cyberport-4-868x578.jpg"
  },
  {
    "id": 18,
    "name": "Lotte Cinema Seoul",
    "address": "836 Samseong-ro, Gangnam-gu, Seoul, South Korea",
    "province": "Seoul",
    "country": "South Korea",
    "open_hours": "09:00 AM",
    "close_hours": "12:00 AM",
    "studio": ["IMAX", "Dolby Cinema", "VIP"],
    "picture": "https://thumbs.dreamstime.com/z/lotte-cinema-yongsan-seoul-march-interior-chain-movie-theatres-south-korea-91046457.jpg"
  },
  {
    "id": 19,
    "name": "CGV Yongsan I'Park Mall",
    "address": "55 Hangang-daero, Yongsan-gu, Seoul, South Korea",
    "province": "Seoul",
    "country": "South Korea",
    "open_hours": "10:00 AM",
    "close_hours": "12:30 AM",
    "studio": ["4DX", "Reguler", "3D"],
    "picture": "https://d3nw26meo6dlp6.cloudfront.net/case_studies/banners/184_1552408599/1140x400_Cinema_CGVYongsanMultiplex_large.jpg"
  },
  {
    "id": 20,
    "name": "MegaBox Coex Mall",
    "address": "513 Yeongdong-daero, Gangnam-gu, Seoul, South Korea",
    "province": "Seoul",
    "country": "South Korea",
    "open_hours": "09:30 AM",
    "close_hours": "12:00 AM",
    "studio": ["Reguler", "2D", "VIP"],
    "picture": "https://4.bp.blogspot.com/-ytuPNnSoW_w/Ut7WCKd1neI/AAAAAAAAAJo/BU_gAIdC73s/s1600/COEX+Mall+Megabox.jpg"
  },
  {
    "id": 21,
    "name": "PVR ICON Phoenix Palladium",
    "address": "462 Senapati Bapat Marg, Lower Parel, Mumbai, India",
    "province": "Maharashtra",
    "country": "India",
    "open_hours": "10:00 AM",
    "close_hours": "11:45 PM",
    "studio": ["IMAX", "4DX", "3D"],
    "picture": "https://im.whatshot.in/img/2020/Apr/f3fea554045e0dce7f0c277536fe58dd-1588046057.jpg"
  },
  {
    "id": 22,
    "name": "INOX Quest Mall",
    "address": "33 Syed Amir Ali Ave, Kolkata, India",
    "province": "West Bengal",
    "country": "India",
    "open_hours": "10:00 AM",
    "close_hours": "11:30 PM",
    "studio": ["Reguler", "Dolby Atmos", "2D"],
    "picture": "https://questmall.in/storage/store_banner/actual/1558001662_ny3fH_img-9805fjpg.jpeg"
  },
  {
    "id": 23,
    "name": "PVR Plaza Delhi",
    "address": "Connaught Place, New Delhi, India",
    "province": "Delhi",
    "country": "India",
    "open_hours": "09:30 AM",
    "close_hours": "12:00 AM",
    "studio": ["Reguler", "3D", "VIP"],
    "picture": "https://www.delhibn.com/wp-content/uploads/2022/01/pvr-delhi-1.jpg"
  },
  {
    "id": 24,
    "name": "Golden Screen Cinemas KLCC",
    "address": "Suria KLCC, Kuala Lumpur, Malaysia",
    "province": "Kuala Lumpur",
    "country": "Malaysia",
    "open_hours": "10:00 AM",
    "close_hours": "11:45 PM",
    "studio": ["IMAX", "Dolby Cinema", "4DX"],
    "picture": "https://media.timeout.com/images/101767801/image.jpg"
  }
]
